Name,Lat,Long
Hemis National Park,33.7187,77.3882
Desert National Park,26.9101,70.8086
Similipal National Park,21.5931,86.2945
Gangotri National Park,30.9426,79.1549
Namdapha National Park,27.4455,96.5358
Khangchendzonga National Park,27.6672,88.3246
Gir Forest National Park,21.1243,70.8242
Sundarbans National Park,21.8359,88.8842
Jim Corbett National Park,29.5300,78.7747
Indravati National Park,19.2059,81.0313